City_ID,City,Country,Lat,Lng,Max Temp,Humidity,Cloudiness,Wind Speed,Current Description
0,Bonfim,BR,3.0833,-59.95,82.06,67,100,5.3,overcast clouds
1,Thompson,CA,55.7435,-97.8558,19.56,45,20,16.11,few clouds
2,Formiga,BR,-20.4644,-45.4264,65.17,77,48,5.32,scattered clouds
3,Ust-Tsilma,RU,65.441,52.1498,31.1,89,100,4.29,overcast clouds
4,Longyearbyen,SJ,78.2186,15.6401,8.44,61,75,11.5,light snow
5,Beyneu,KZ,45.3167,55.2,50.45,63,1,10.83,clear sky
6,Viedma,AR,-40.8135,-62.9967,67.93,45,95,24.49,overcast clouds
7,Vardo,NO,70.3705,31.1107,34.88,87,100,5.21,overcast clouds
8,Antofagasta,CL,-23.65,-70.4,61.88,89,44,4.81,scattered clouds
9,Ushuaia,AR,-54.8,-68.3,38.86,75,0,3.44,clear sky
10,Bambous Virieux,MU,-20.3428,57.7575,75.45,73,40,13.8,scattered clouds
11,Ancud,CL,-41.8697,-73.8203,44.22,75,64,21.72,light rain
12,Placido De Castro,BR,-10.3353,-67.1856,74.46,98,91,2.64,overcast clouds
13,Busselton,AU,-33.65,115.3333,68.56,50,100,11.3,light rain
14,Carnarvon,AU,-24.8667,113.6333,68.07,94,40,5.75,scattered clouds
15,Clyde River,CA,70.4692,-68.5914,7.03,92,100,5.75,light snow
16,Qaqortoq,GL,60.7167,-46.0333,35.58,90,100,4.05,overcast clouds
17,Puerto Ayora,EC,-0.7393,-90.3518,72.37,89,73,6.71,broken clouds
18,Charagua,BO,-19.8,-63.2167,73.71,76,27,16.87,scattered clouds
19,Atuona,PF,-9.8,-139.0333,79.07,74,24,17.07,few clouds
20,Buchanan,LR,5.8808,-10.0467,75.72,86,100,2.19,overcast clouds
21,Hilo,US,19.7297,-155.09,83.28,93,67,4.0,broken clouds
22,Avarua,CK,-21.2078,-159.775,82.45,78,20,5.75,few clouds
23,Jamshedpur,IN,22.8,86.1833,78.62,73,4,0.0,haze
24,Cherskiy,RU,68.75,161.3,22.89,80,100,7.25,overcast clouds
25,Albany,US,42.6001,-73.9662,61.45,46,73,9.1,broken clouds
26,Envira,BR,-7.3,-70.2167,75.76,92,100,1.14,overcast clouds
27,Yellowknife,CA,62.456,-114.3525,37.92,52,20,15.01,few clouds
28,Baykit,RU,61.67,96.37,31.96,88,100,6.4,overcast clouds
29,Jamestown,US,42.097,-79.2353,76.64,33,0,5.75,clear sky
30,Mataura,NZ,-46.1927,168.8643,54.48,76,90,12.1,overcast clouds
31,Tuktoyaktuk,CA,69.4541,-133.0374,26.6,74,0,5.75,clear sky
32,Salmon Creek,US,45.7107,-122.649,70.07,38,100,5.3,overcast clouds
33,Smidovich,RU,48.6,133.8167,48.67,44,100,7.07,light rain
34,Praia Da Vitoria,PT,38.7333,-27.0667,57.45,82,20,18.12,few clouds
35,Luderitz,NA,-26.6481,15.1594,54.63,62,0,15.99,clear sky
36,Rikitea,PF,-23.1203,-134.9692,73.36,85,100,13.29,moderate rain
37,Port Alfred,ZA,-33.5906,26.891,57.18,78,100,4.0,overcast clouds
38,Souillac,MU,-20.5167,57.5167,75.58,73,40,13.8,scattered clouds
39,Kodiak,US,57.79,-152.4072,46.08,68,43,3.15,scattered clouds
40,Vao,NC,-22.6667,167.4833,74.64,63,100,22.95,overcast clouds
41,Katsuura,JP,35.1333,140.3,68.58,73,18,1.63,few clouds
42,Tessalit,ML,20.1986,1.0114,76.37,12,0,8.97,clear sky
43,Tautira,PF,-17.7333,-149.15,80.8,70,19,7.29,light rain
44,Georgetown,MY,5.4112,100.3354,84.13,92,20,3.44,few clouds
45,Grand Gaube,MU,-20.0064,57.6608,75.6,70,88,8.99,overcast clouds
46,Saskylakh,RU,71.9167,114.0833,8.55,94,90,2.37,overcast clouds
47,Punta Arenas,CL,-53.15,-70.9167,41.11,87,100,3.44,light rain
48,Chuy,UY,-33.6971,-53.4616,64.36,62,0,13.06,light rain
49,Hobart,AU,-42.8794,147.3294,58.26,86,75,8.05,broken clouds
50,Pangkalanbuun,ID,-2.6833,111.6167,83.59,78,53,1.23,broken clouds
51,Vaini,TO,-21.2,-175.2,80.76,78,75,8.05,broken clouds
52,Mar Del Plata,AR,-38.0023,-57.5575,64.87,69,0,15.01,clear sky
53,Hithadhoo,MV,-0.6,73.0833,84.16,73,100,8.08,overcast clouds
54,Galesong,ID,-5.3166,119.3661,78.82,73,100,7.63,overcast clouds
55,Skibbereen,IE,51.55,-9.2667,53.11,85,7,9.69,light rain
56,Itoman,JP,26.1247,127.6694,80.62,89,40,10.36,scattered clouds
57,Shelburne,CA,44.0787,-80.2041,64.85,64,100,10.8,overcast clouds
58,Shache,CN,38.4167,77.2406,67.28,25,71,17.38,broken clouds
59,Esperance,AU,-33.8667,121.9,60.64,68,67,9.8,broken clouds
60,Groningen,NL,53.25,6.75,47.01,81,100,9.22,overcast clouds
61,Lagoa,PT,39.05,-27.9833,57.79,74,0,18.7,clear sky
62,Baiyin,CN,36.5583,104.2081,60.53,38,42,6.31,scattered clouds
63,Godollo,HU,47.5966,19.3551,48.58,100,0,2.3,clear sky
64,Villa Maria,AR,-32.4075,-63.2402,69.82,84,0,16.84,clear sky
65,Kautokeino,NO,69.0125,23.0412,28.85,98,100,0.98,light snow
66,Arraial Do Cabo,BR,-22.9661,-42.0278,75.11,76,100,10.96,overcast clouds
67,Ostrovnoy,RU,68.0531,39.5131,33.35,93,100,9.8,overcast clouds
68,Tijucas,BR,-27.2414,-48.6336,73.42,86,66,4.56,broken clouds
69,Vestmannaeyjar,IS,63.4427,-20.2734,43.79,81,0,10.36,clear sky
70,East London,ZA,-33.0153,27.9116,61.83,72,58,15.88,broken clouds
71,Acajutla,SV,13.5928,-89.8275,82.45,70,12,5.08,light rain
72,Lavrentiya,RU,65.5833,-171.0,27.86,76,51,4.32,broken clouds
73,Fatezh,RU,52.0891,35.8632,44.58,91,0,4.76,clear sky
74,Tuatapere,NZ,-46.1333,167.6833,58.33,69,40,14.7,scattered clouds
75,Marawi,PH,7.9986,124.2928,78.64,71,65,2.91,broken clouds
76,Saint George,US,37.1041,-113.5841,70.39,13,0,10.0,clear sky
77,Port Blair,IN,11.6667,92.75,78.84,89,20,2.3,mist
78,Waupun,US,43.6333,-88.7296,58.33,63,10,19.6,clear sky
79,Linxia,CN,35.6003,103.2064,56.82,51,88,0.96,overcast clouds
80,Davidson,US,36.1501,-86.7833,77.76,60,7,7.61,clear sky
81,Warrington,GB,53.3925,-2.5802,45.86,78,75,9.22,broken clouds
82,Ban Tak,TH,17.0432,99.0813,86.27,55,33,5.08,scattered clouds
83,Pangnirtung,CA,66.1451,-65.7125,21.38,88,100,5.01,overcast clouds
84,Cap Malheureux,MU,-19.9842,57.6142,75.47,70,88,8.99,overcast clouds
85,Kiunga,PG,-6.1219,141.2906,87.46,60,74,2.08,broken clouds
86,Kruisfontein,ZA,-34.0033,24.7314,52.88,78,100,5.95,overcast clouds
87,Sabang,ID,5.8933,95.3214,83.25,75,100,4.79,overcast clouds
88,Inhambane,MZ,-23.865,35.3833,74.3,87,0,4.05,clear sky
89,Emerald,AU,-23.5333,148.1667,69.94,68,100,20.71,light rain
90,Zemetchino,RU,53.4973,42.6163,49.95,86,100,8.95,light rain
91,Mount Gambier,AU,-37.8333,140.7667,57.11,82,100,4.61,overcast clouds
92,Pundaguitan,PH,6.3711,126.1689,82.36,77,73,9.15,broken clouds
93,Lebu,CL,-37.6167,-73.65,51.39,77,7,6.11,clear sky
94,Pevek,RU,69.7008,170.3133,13.21,89,86,1.39,overcast clouds
95,Hamilton,US,39.1834,-84.5333,77.63,54,92,1.01,overcast clouds
96,Gat,IL,31.61,34.7642,72.39,100,72,1.83,broken clouds
97,Ucluelet,CA,48.9329,-125.5528,48.51,92,100,1.99,overcast clouds
98,Hay River,CA,60.8156,-115.7999,44.58,42,20,14.97,few clouds
99,Asfi,MA,32.2994,-9.2372,58.68,76,0,8.34,clear sky
100,Bathsheba,BB,13.2167,-59.5167,79.41,78,40,18.41,scattered clouds
101,Hearst,CA,49.6835,-83.6665,61.05,95,100,10.65,overcast clouds
102,Bud,US,39.447,-86.1758,73.81,64,100,12.91,overcast clouds
103,Biak,ID,-0.9131,122.8766,83.46,68,4,0.49,clear sky
104,Xuddur,SO,4.1213,43.8894,73.99,83,38,9.4,scattered clouds
105,Mangochi,MW,-14.4782,35.2645,68.65,94,27,5.14,scattered clouds
106,Bluff,NZ,-46.6,168.3333,54.81,80,91,29.24,overcast clouds
107,Cape Town,ZA,-33.9258,18.4232,57.9,80,75,7.0,broken clouds
108,Saint-Philippe,RE,-21.3585,55.7679,74.79,77,84,12.86,light rain
109,Togur,RU,58.3631,82.8265,31.55,78,100,5.35,overcast clouds
110,Buraydah,SA,26.326,43.975,66.65,64,21,13.8,few clouds
111,Axim,GH,4.8699,-2.2405,76.01,84,100,5.86,overcast clouds
112,Tabou,CI,4.423,-7.3528,80.19,86,100,3.27,light rain
113,Tasiilaq,GL,65.6145,-37.6368,25.48,68,17,3.24,few clouds
114,Quatre Cocos,MU,-20.2078,57.7625,75.31,72,27,16.37,scattered clouds
115,Comodoro Rivadavia,AR,-45.8667,-67.5,49.86,53,0,25.32,clear sky
116,Sinnamary,GF,5.3833,-52.95,78.13,89,77,9.33,broken clouds
117,Qaanaaq,GL,77.484,-69.3632,0.66,67,49,6.82,scattered clouds
118,Avera,US,33.194,-82.5271,72.91,66,84,5.97,broken clouds
119,Huarmey,PE,-10.0681,-78.1522,68.63,85,74,7.94,broken clouds
120,Urucui,BR,-7.2294,-44.5561,75.74,81,16,0.76,few clouds
121,Sidi Ali,DZ,36.0998,0.4206,55.96,70,100,1.77,overcast clouds
122,San Patricio,US,28.017,-97.5169,80.83,86,9,16.06,clear sky
123,Mount Isa,AU,-20.7333,139.5,69.57,100,100,5.75,drizzle
124,Kaniama,CD,-7.5667,24.1833,66.47,97,30,1.99,scattered clouds
125,Hermanus,ZA,-34.4187,19.2345,58.78,72,96,3.56,overcast clouds
126,Cockburn Town,TC,21.4612,-71.1419,76.96,69,75,13.8,broken clouds
127,New Norfolk,AU,-42.7826,147.0587,57.92,81,100,1.68,overcast clouds
128,South Shields,GB,54.9986,-1.4323,44.96,82,40,4.61,scattered clouds
129,Krasnyy Yar,RU,46.5331,48.3456,46.33,77,13,5.61,few clouds
130,Kapaa,US,22.0752,-159.319,82.38,78,22,7.0,few clouds
131,Clarence Town,AU,-32.5833,151.7833,68.86,63,100,2.91,overcast clouds
132,Bandarbeyla,SO,9.4942,50.8122,81.23,73,66,7.07,broken clouds
133,Barrow,US,71.2906,-156.7887,20.1,86,100,10.11,overcast clouds
134,Olinda,BR,-8.0089,-34.8553,82.13,74,75,9.22,broken clouds
135,Castro,BR,-24.7911,-50.0119,59.74,94,2,5.21,clear sky
136,Berlevag,NO,70.8578,29.0864,33.6,80,100,6.51,overcast clouds
137,Kastrakion,GR,39.7156,21.6181,56.26,77,6,4.65,clear sky
138,Lompoc,US,34.6391,-120.4579,78.78,75,0,18.99,clear sky
139,East Stroudsburg,US,40.9995,-75.1813,56.12,62,8,3.38,clear sky
140,Upernavik,GL,72.7868,-56.1549,0.05,94,40,6.93,scattered clouds
141,Warrnambool,AU,-38.3833,142.4833,61.81,62,14,5.86,few clouds
142,Manavadar,IN,21.5,70.1333,78.31,59,0,4.52,clear sky
143,Tiksi,RU,71.6872,128.8694,4.71,95,93,3.53,overcast clouds
144,Charters Towers,AU,-20.1,146.2667,73.71,79,100,16.4,overcast clouds
145,Vila Franca Do Campo,PT,37.7167,-25.4333,57.61,81,38,11.41,scattered clouds
146,Saanen,CH,46.4896,7.2596,46.33,100,100,3.4,overcast clouds
147,Shingu,JP,33.7333,135.9833,71.24,76,64,3.98,broken clouds
148,Nieuwerkerken,BE,50.8652,5.1917,49.05,83,75,8.05,broken clouds
149,Nardaran,AZ,40.5561,50.0056,55.04,82,0,4.61,clear sky
150,Victoria,HK,22.2855,114.1577,82.45,82,8,8.01,clear sky
151,Wad Rawah,SD,15.1603,33.1397,85.71,7,42,9.42,scattered clouds
152,Atambua,ID,-9.1061,124.8925,81.46,52,87,1.12,overcast clouds
153,Salalah,OM,17.0151,54.0924,79.7,77,29,5.28,scattered clouds
154,Hambantota,LK,6.1241,81.1185,75.54,100,75,3.44,broken clouds
155,Pelym,RU,61.0108,61.9978,29.68,97,100,2.64,overcast clouds
156,Dukat,RU,62.55,155.55,22.73,88,100,5.46,light snow
157,Kaitangata,NZ,-46.2817,169.8464,58.05,67,43,18.59,scattered clouds
158,Broome,US,42.2506,-75.833,72.37,89,88,6.78,overcast clouds
159,Turan,VN,16.0678,108.2208,82.38,74,20,5.75,few clouds
160,Maceio,BR,-9.6658,-35.7353,78.24,83,75,3.44,broken clouds
161,La Ronge,CA,55.1001,-105.2842,32.45,74,100,8.14,overcast clouds
162,King City,US,36.2127,-121.126,80.44,29,0,12.39,clear sky
163,Salvador,SV,13.8333,-88.9167,73.8,83,15,1.68,few clouds
164,Narsaq,GL,60.9167,-46.05,41.22,89,100,2.68,overcast clouds
165,Nome,US,64.5011,-165.4064,37.47,87,100,4.61,overcast clouds
166,Ketchikan,US,55.3422,-131.6461,42.19,95,100,4.79,light rain
167,Alice,US,27.7523,-98.0697,80.33,75,2,19.53,clear sky
168,Chokurdakh,RU,70.6333,147.9167,8.49,91,25,3.89,scattered clouds
169,Saint-Pierre,RE,-21.3393,55.4781,74.88,72,75,17.27,broken clouds
170,San Vicente,AR,-26.6167,-54.1333,68.63,86,0,5.03,clear sky
171,Khatanga,RU,71.9667,102.5,0.79,95,88,5.79,overcast clouds
172,Sisimiut,GL,66.9395,-53.6735,24.08,92,72,1.63,broken clouds
173,Dordrecht,NL,51.81,4.6736,47.98,78,0,1.99,clear sky
174,Kahului,US,20.8947,-156.47,78.96,84,38,8.01,scattered clouds
175,Ziyang,CN,29.2497,117.8547,78.24,83,98,3.62,overcast clouds
176,Tutoia,BR,-2.7619,-42.2744,76.95,85,100,6.91,overcast clouds
177,Butaritari,KI,3.0707,172.7902,81.36,77,49,10.96,scattered clouds
178,Aklavik,CA,68.2191,-135.0107,33.03,91,100,5.75,overcast clouds
179,Gigmoto,PH,13.7796,124.39,83.3,81,100,9.91,overcast clouds
180,Ceres,US,37.5949,-120.9577,80.92,29,0,8.86,clear sky
181,Dikson,RU,73.5069,80.5464,8.78,93,100,16.6,overcast clouds
182,Bredasdorp,ZA,-34.5322,20.0403,56.21,75,75,4.94,broken clouds
183,Tallahassee,US,30.4383,-84.2807,73.99,66,64,3.13,broken clouds
184,Balozi,LV,56.8761,24.1186,45.73,100,100,3.44,overcast clouds
185,Ponta Do Sol,PT,32.6667,-17.1,65.01,86,100,10.96,light rain
186,Lindi,TZ,-10.0,39.7167,73.42,98,100,3.6,light rain
187,Iwanai,JP,42.9744,140.5089,58.64,39,54,4.74,broken clouds
188,Santa Rosa,PH,14.3122,121.1114,84.11,75,89,11.03,overcast clouds
189,Dunhua,CN,43.3725,128.2425,64.29,32,2,6.87,clear sky
190,Elk City,US,35.412,-99.4043,68.22,24,0,11.5,clear sky
191,Hornostayivka,UA,47.0078,33.729,51.82,83,100,5.48,overcast clouds
192,Xining,CN,36.6167,101.7667,53.28,49,19,2.98,few clouds
193,Monrovia,LR,6.3005,-10.7969,76.51,89,100,6.46,overcast clouds
194,Sept-Iles,CA,50.2001,-66.3821,38.05,69,20,6.91,few clouds
195,Fairbanks,US,64.8378,-147.7164,41.79,89,100,1.14,overcast clouds
196,Boca Do Acre,BR,-8.7522,-67.3978,74.97,95,100,3.11,overcast clouds
197,Aquiraz,BR,-3.9014,-38.3911,78.19,88,100,10.56,light rain
198,Fortuna,US,40.5982,-124.1573,59.94,72,0,12.66,clear sky
199,Amapa,BR,1.0,-52.0,72.81,98,25,2.06,scattered clouds
200,Pailon,BO,-17.65,-62.75,79.16,72,100,10.07,overcast clouds
201,Fort Smith,US,35.3859,-94.3986,66.25,93,100,16.11,heavy intensity rain
202,San Luis,AR,-33.295,-66.3356,67.68,47,0,12.01,clear sky
203,Aberdeen,GB,57.1437,-2.0981,44.49,95,100,2.3,overcast clouds
204,Whitianga,NZ,-36.8333,175.7,66.29,56,76,5.61,moderate rain
205,Sao Filipe,CV,14.8961,-24.4956,74.1,75,6,3.53,clear sky
206,Tamandare,BR,-8.7597,-35.1047,78.17,84,88,8.08,overcast clouds
207,Alexander City,US,32.944,-85.9539,73.49,73,0,0.0,clear sky
208,Duluth,US,46.7833,-92.1066,44.28,83,100,17.27,overcast clouds
209,Rolla,US,37.9514,-91.7713,57.51,91,100,6.91,moderate rain
210,Petropavlovsk-Kamchatskiy,RU,53.0452,158.6483,43.39,53,75,20.13,broken clouds
211,Metro,ID,-5.1131,105.3067,80.33,81,95,5.53,overcast clouds
212,Bengkulu,ID,-3.8004,102.2655,77.59,87,89,3.87,overcast clouds
213,Petatlan,MX,17.5167,-101.2667,78.26,70,0,4.85,clear sky
214,Manokwari,ID,-0.8667,134.0833,81.79,78,11,3.6,few clouds
215,Shwebo,MM,22.5667,95.7,91.13,32,1,7.76,clear sky
216,Torbay,CA,47.6666,-52.7314,37.76,96,100,16.11,mist
217,Buala,SB,-8.145,159.5921,85.68,69,86,6.78,overcast clouds
218,Vicuna,CL,-30.0319,-70.7081,62.76,60,0,1.03,clear sky
219,Nador,MA,35.174,-2.9287,57.45,82,0,2.3,clear sky
220,Vikhorevka,RU,56.1201,101.1636,24.39,78,95,7.58,overcast clouds
221,Joshimath,IN,30.5667,79.5667,57.15,35,24,7.72,few clouds
222,Omboue,GA,-1.5746,9.2618,77.92,89,100,1.57,overcast clouds
223,Ribeira Grande,PT,38.5167,-28.7,58.89,75,16,14.09,light rain
224,Valparaiso,CL,-33.0393,-71.6273,59.47,86,100,7.2,overcast clouds
225,Vostok,RU,46.4856,135.8833,45.91,31,100,5.95,overcast clouds
226,Tselina,RU,46.5338,41.0328,44.24,77,1,5.19,clear sky
227,Great Yarmouth,GB,52.6083,1.7305,44.94,87,7,15.5,clear sky
228,Kisangani,CD,0.5167,25.2,69.89,98,100,2.06,overcast clouds
229,Honiara,SB,-9.4333,159.95,87.53,63,29,5.39,scattered clouds
230,Barcelos,PT,41.5388,-8.6151,53.92,92,100,3.56,overcast clouds
231,Cayenne,GF,4.9333,-52.3333,81.09,1,40,3.44,scattered clouds
232,Magadan,RU,59.5667,150.8,31.84,67,31,5.57,scattered clouds
233,Chapais,CA,49.7834,-74.8492,36.84,84,100,12.88,overcast clouds
234,Nieves,PH,15.3274,120.9485,91.29,47,28,7.4,scattered clouds
235,Abha,SA,18.2164,42.5053,59.25,67,0,0.0,clear sky
236,Yerbogachen,RU,61.2767,108.0108,29.48,74,100,7.85,overcast clouds
237,Muswellbrook,AU,-32.2667,150.9,66.72,60,100,6.11,overcast clouds
238,Sistranda,NO,63.7256,8.834,42.76,79,100,6.58,overcast clouds
239,Geraldton,AU,-28.7667,114.6,72.01,37,100,17.27,overcast clouds
240,Hofn,IS,64.2539,-15.2082,40.91,90,99,4.81,overcast clouds
241,Sopot,PL,54.4418,18.56,44.89,87,100,9.22,overcast clouds
242,Halifax,CA,44.6453,-63.5724,38.68,80,99,14.97,overcast clouds
243,Bhatgaon,IN,21.15,81.7,80.78,61,20,4.61,haze
244,Bethel,US,41.3712,-73.414,50.09,61,0,4.61,clear sky
245,Jamame,SO,0.0722,42.7506,80.67,79,90,7.54,overcast clouds
246,Matara,LK,5.9485,80.5353,78.67,86,100,1.61,heavy intensity rain
247,Shubarshi,KZ,48.5872,57.1869,40.23,49,12,7.14,few clouds
248,Belmonte,BR,-15.8631,-38.8828,78.03,85,53,8.14,broken clouds
249,Benguela,AO,-12.5763,13.4055,74.12,89,80,3.18,broken clouds
250,Leningradskiy,RU,69.3833,178.4167,22.69,86,93,3.02,overcast clouds
251,Muros,ES,42.7762,-9.0603,50.85,93,98,6.55,overcast clouds
252,Beringovskiy,RU,63.05,179.3167,29.05,77,100,9.33,overcast clouds
253,Wattegama,LK,6.7989,81.4808,76.03,93,46,2.1,scattered clouds
254,Hobyo,SO,5.3505,48.5268,82.78,72,4,11.07,clear sky
255,Presidencia Roque Saenz Pena,AR,-26.7852,-60.4388,80.6,59,31,8.86,scattered clouds
256,Mascote,BR,-15.5631,-39.3025,71.92,97,28,0.65,scattered clouds
257,Ende,ID,-8.8432,121.6623,84.4,62,100,2.73,overcast clouds
258,Nikolskoye,RU,59.7035,30.7861,44.49,97,100,6.17,light rain
259,Dunedin,NZ,-45.8742,170.5036,63.81,53,8,15.01,clear sky
260,Zhicheng,CN,30.2956,111.5047,70.57,84,100,4.27,overcast clouds
261,Esna,EG,25.2934,32.554,75.78,19,0,8.75,clear sky
262,Namwala,ZM,-15.7504,26.4384,61.09,89,0,2.44,clear sky
263,Lazaro Cardenas,MX,17.9583,-102.2,78.28,66,9,8.08,clear sky
264,Coffs Harbour,AU,-30.3,153.1333,70.12,68,40,10.36,scattered clouds
265,Tadine,NC,-21.55,167.8833,76.28,67,100,19.82,overcast clouds
266,Loukhi,RU,66.0764,33.0381,31.6,94,100,5.1,overcast clouds
267,La Grange Park,US,41.8348,-87.8617,66.25,65,75,11.5,broken clouds
268,Severo-Kurilsk,RU,50.6789,156.125,34.0,90,88,1.81,overcast clouds
269,Ipameri,BR,-17.7219,-48.1597,69.19,62,0,4.23,clear sky
270,Ixtapa,MX,20.7,-105.2,76.23,73,0,8.05,clear sky
271,Selianitika,GR,38.2833,22.0333,60.01,79,99,1.99,overcast clouds
272,Roald,NO,62.5833,6.1333,46.76,81,100,12.66,overcast clouds
273,Jinja,UG,0.439,33.2032,66.07,90,100,1.66,light rain
274,Labuhan,ID,-6.8844,112.2051,81.36,81,41,6.64,scattered clouds
275,Kimbe,PG,-5.5502,150.1429,87.19,65,83,3.69,broken clouds
276,Gushikawa,JP,26.3544,127.8686,80.6,83,75,8.05,broken clouds
277,Bowen,AU,-20.0167,148.2333,77.36,84,100,22.84,overcast clouds
278,Spokane,US,47.6166,-117.3677,64.4,30,100,3.0,overcast clouds
279,Panguna,PG,-6.3164,155.4848,81.37,63,54,2.82,light rain
280,Celestun,MX,20.8667,-90.4,81.91,70,22,15.64,few clouds
281,Chifeng,CN,42.2683,118.9636,68.94,25,0,7.74,clear sky
282,Emba,KZ,48.8264,58.1442,38.14,51,2,6.89,clear sky
283,Provideniya,RU,64.3833,-173.3,35.71,64,0,4.47,clear sky
284,Cangzhou,CN,38.3167,116.8667,71.08,61,100,5.41,overcast clouds
285,Barabinsk,RU,55.3571,78.357,34.41,61,58,6.91,broken clouds
286,Cidreira,BR,-30.1811,-50.2056,68.68,87,0,20.42,clear sky
287,Tura,IN,25.5198,90.2201,76.35,87,41,6.33,scattered clouds
288,Derzhavinsk,KZ,51.1,66.3167,35.06,58,9,8.19,clear sky
289,Mehamn,NO,71.0357,27.8492,33.13,81,100,4.97,overcast clouds
290,Sao Felix Do Xingu,BR,-6.6447,-51.995,72.52,96,100,1.88,overcast clouds
291,Roma,US,43.2128,-75.4557,61.68,83,91,11.12,overcast clouds
292,Miraflores,MX,19.2167,-98.8083,68.76,49,66,5.84,moderate rain
293,Porto Novo,BJ,6.4965,2.6036,79.9,80,100,5.68,overcast clouds
294,Durban,ZA,-29.8579,31.0292,67.01,86,100,1.01,overcast clouds
295,Pinawa,CA,50.1489,-95.8811,27.37,95,100,15.43,light snow
296,Sitka,US,57.0531,-135.33,46.29,76,100,0.0,light rain
297,Klaksvik,FO,62.2266,-6.589,38.32,83,100,16.35,overcast clouds
298,Nisia Floresta,BR,-6.0911,-35.2086,77.81,92,17,6.06,light rain
299,Mahebourg,MU,-20.4081,57.7,75.25,72,13,16.62,few clouds
300,Stornoway,GB,58.2093,-6.3865,46.92,82,100,10.36,overcast clouds
301,Airai,TL,-8.9266,125.4092,72.66,39,99,2.71,overcast clouds
302,Songjianghe,CN,42.1859,127.479,65.26,46,9,9.35,clear sky
303,Westport,US,41.1415,-73.3579,49.59,72,11,3.0,few clouds
304,Arman,RU,59.7,150.1667,33.33,62,62,9.1,broken clouds
305,Xuchang,CN,34.0167,113.8167,63.32,87,100,12.39,overcast clouds
306,Padampur,IN,29.6833,73.6167,80.82,19,60,6.42,broken clouds
307,Coria,ES,39.9879,-6.5377,49.44,84,12,2.24,few clouds
308,Talnakh,RU,69.4865,88.3972,-3.8,97,90,5.1,overcast clouds
309,Vaitape,PF,-16.5167,-151.75,81.45,71,28,7.31,scattered clouds
310,Silifke,TR,36.3778,33.9344,69.44,44,0,1.01,clear sky
311,Touros,BR,-5.1989,-35.4608,76.1,91,100,8.52,overcast clouds
312,Biltine,TD,14.5333,20.9167,84.69,12,98,2.8,overcast clouds
313,Saldanha,ZA,-33.0117,17.9442,57.27,79,0,14.2,clear sky
314,Gornopravdinsk,RU,60.05,69.9,31.53,92,30,4.7,scattered clouds
315,Gorontalo,ID,0.5412,123.0595,87.44,65,6,1.48,clear sky
316,Floro,NO,61.5996,5.0328,44.96,87,66,1.14,broken clouds
317,El Paujil,CO,1.5701,-75.3286,71.71,97,100,2.77,moderate rain
318,Conceicao Do Araguaia,BR,-8.2578,-49.2647,73.72,93,100,2.35,overcast clouds
319,Gamba,GA,-2.65,10.0,77.18,90,100,3.76,overcast clouds
320,Sao Geraldo Do Araguaia,BR,-6.4006,-48.555,74.32,95,97,2.82,overcast clouds
321,Edea,CM,3.8,10.1333,73.02,96,99,2.15,light rain
322,Pisco,PE,-13.7,-76.2167,69.03,77,0,6.91,clear sky
323,Port Elizabeth,ZA,-33.918,25.5701,57.31,71,100,8.01,overcast clouds
324,Tianpeng,CN,30.9866,103.9393,69.98,63,100,1.28,overcast clouds
325,Maniitsoq,GL,65.4167,-52.9,26.92,90,100,6.58,overcast clouds
326,Dubovka,RU,49.0583,44.829,52.75,72,99,7.4,light rain
327,Laguna,US,38.421,-121.4238,82.62,22,0,9.22,clear sky
328,Natal,BR,-5.795,-35.2094,77.65,94,40,3.44,scattered clouds
329,Bridlington,GB,54.0831,-0.1919,44.15,84,6,14.36,clear sky
330,Elizabeth City,US,36.2946,-76.2511,75.99,70,0,6.91,clear sky
331,Padang,ID,-0.9492,100.3543,75.25,80,100,2.57,overcast clouds
332,Marsa Matruh,EG,31.3525,27.2453,62.1,83,0,8.43,clear sky
333,Ahuimanu,US,21.4447,-157.8378,83.91,65,75,20.71,broken clouds
334,Fort-Shevchenko,KZ,44.5086,50.263,58.14,56,10,10.56,clear sky
335,Diamantina,BR,-18.2494,-43.6003,64.4,74,8,5.64,clear sky
336,Poso,ID,-1.3959,120.7524,83.21,75,49,2.15,scattered clouds
337,Verkhnyaya Inta,RU,65.9811,60.3094,20.34,97,80,6.35,broken clouds
338,Nurota,UZ,40.5614,65.6886,53.82,67,0,5.26,clear sky
339,San Cristobal,VE,7.7669,-72.225,69.98,98,89,2.04,overcast clouds
340,Lannion,FR,48.75,-3.4167,50.68,93,13,3.44,mist
341,Havre-Saint-Pierre,CA,50.2334,-63.5986,37.71,78,100,15.21,overcast clouds
342,Yenagoa,NG,4.9247,6.2642,74.17,91,100,1.52,overcast clouds
343,Carutapera,BR,-1.195,-46.02,75.15,92,1,5.91,clear sky
344,Grindavik,IS,63.8424,-22.4338,43.27,93,100,11.5,overcast clouds
345,Mandera,KE,3.9366,41.867,82.99,61,100,13.85,overcast clouds
346,Kayerkan,RU,69.3497,87.7602,-4.49,83,79,2.71,broken clouds
347,Autun,FR,46.95,4.3,49.93,99,100,5.82,overcast clouds
348,Sorland,NO,67.667,12.6934,40.15,91,100,9.86,light rain
349,Tilichiki,RU,60.4667,166.1,27.46,85,100,17.67,light snow
350,Uvira,CD,-3.4067,29.1458,72.91,86,100,3.6,light rain
351,Henties Bay,NA,-22.116,14.2845,58.89,83,0,9.53,clear sky
352,Karabash,RU,55.4808,60.2157,42.33,68,100,4.83,overcast clouds
353,Los Llanos De Aridane,ES,28.6585,-17.9182,62.35,81,75,10.36,broken clouds
354,Puerto Cabezas,NI,14.0351,-83.3888,77.07,85,14,7.45,few clouds
355,Wanaka,NZ,-44.7,169.15,62.74,52,8,3.53,clear sky
356,Da Nang,VN,16.0678,108.2208,82.38,74,20,5.75,few clouds
357,Havoysund,NO,70.9963,24.6622,34.03,71,100,8.43,light snow
358,Plettenberg Bay,ZA,-34.0527,23.3716,55.72,85,100,9.71,light rain
359,Muisne,EC,0.6,-80.0333,77.72,82,100,6.38,overcast clouds
360,Siruguppa,IN,15.6333,76.9,85.87,37,0,5.46,clear sky
361,Okhotsk,RU,59.3833,143.3,31.51,83,25,12.01,scattered clouds
362,Dondo,MZ,-19.6094,34.7431,70.29,97,16,4.27,few clouds
363,Svetlaya,RU,46.5389,138.3297,47.41,47,100,3.4,overcast clouds
364,Champerico,GT,14.3,-91.9167,83.95,67,7,5.88,clear sky
365,Isangel,VU,-19.55,169.2667,79.45,67,100,18.43,overcast clouds
366,Daru,PG,-9.0763,143.2092,84.96,70,32,1.39,scattered clouds
367,Lata,PT,40.1629,-8.3327,50.07,95,16,1.88,few clouds
368,Coihaique,CL,-45.5752,-72.0662,40.95,81,100,8.05,light rain
369,Gizo,SB,-8.103,156.8419,84.79,67,78,3.71,broken clouds
370,Norman Wells,CA,65.282,-126.8329,41.86,78,89,3.62,overcast clouds
371,Madimba,TZ,-10.4,40.3333,76.14,90,96,3.51,light rain
372,Chipinge,ZW,-20.1883,32.6236,58.1,91,0,2.51,clear sky
373,Gambela,ET,8.25,34.5833,72.81,85,100,3.74,light rain
374,Marsabit,KE,2.3284,37.9899,68.32,75,95,11.3,light rain
375,Svetlogorsk,BY,52.6333,29.7333,47.89,82,100,7.76,overcast clouds
376,Nampa,US,43.5407,-116.5635,65.71,19,0,6.91,clear sky
377,Brae,GB,60.3964,-1.353,45.14,87,25,18.81,scattered clouds
378,Kenai,US,60.5544,-151.2583,53.02,51,100,12.66,overcast clouds
379,Cabedelo,BR,-6.9811,-34.8339,77.67,82,7,9.33,clear sky
380,Pirovskoye,RU,57.6267,92.2658,30.51,88,99,9.19,overcast clouds
381,Samarai,PG,-10.6167,150.6667,84.58,69,79,14.52,broken clouds
382,Chumikan,RU,54.7183,135.315,31.53,80,100,10.83,overcast clouds
383,Reconquista,AR,-29.15,-59.65,75.11,88,69,12.19,broken clouds
384,Agapovka,RU,53.2973,59.1348,36.61,54,99,5.84,overcast clouds
385,Waseca,US,44.0777,-93.5074,44.98,75,52,17.78,broken clouds
386,Trelew,AR,-43.249,-65.3051,57.29,28,0,28.54,clear sky
387,Faanui,PF,-16.4833,-151.75,81.34,72,29,7.2,light rain
388,Fengxian,CN,34.7039,116.5872,65.23,94,100,8.23,moderate rain
389,Flinders,AU,-34.5833,150.8552,65.17,90,100,11.01,overcast clouds
390,Adelaide,AU,-34.9333,138.6,74.21,44,0,10.36,clear sky
391,Florissant,US,38.7892,-90.3226,64.9,92,100,14.0,mist
392,Korla,CN,41.7597,86.1469,66.78,27,96,9.84,overcast clouds
393,Ugoofaaru,MV,5.6667,73.0,84.27,70,100,4.63,overcast clouds
394,San Pedro,PH,14.35,121.0167,83.35,74,74,10.38,broken clouds
395,Darnah,LY,32.767,22.6367,59.77,82,100,9.04,overcast clouds
396,Chicama,PE,-7.8447,-79.1469,59.54,80,88,6.2,overcast clouds
397,Krasnyy Chikoy,RU,50.3643,108.7512,28.72,82,100,7.54,snow
398,Palmer,US,42.1584,-72.3287,51.44,56,40,8.05,scattered clouds
399,Oxford,GB,51.7522,-1.256,45.75,87,52,1.99,broken clouds
400,Haines Junction,CA,60.7522,-137.5108,43.09,70,87,2.51,overcast clouds
401,Mogadishu,SO,2.0371,45.3438,82.53,74,69,9.22,broken clouds
402,Makakilo City,US,21.3469,-158.0858,82.72,51,40,20.71,scattered clouds
403,Dubbo,AU,-32.25,148.6167,66.33,59,100,14.97,overcast clouds
404,Christchurch,NZ,-43.5333,172.6333,69.42,59,0,4.61,clear sky
405,Whittlesea,ZA,-32.1759,26.8244,49.12,90,97,3.94,light rain
406,Pyapon,MM,16.2833,95.6833,85.57,70,10,6.82,clear sky
407,Ilulissat,GL,69.2167,-51.1,26.62,93,100,4.61,light snow
408,Ahipara,NZ,-35.1667,173.1667,65.08,73,98,12.21,overcast clouds
409,Alexandria,EG,31.2156,29.9553,63.95,80,0,6.02,clear sky
410,Rawson,AR,-43.3002,-65.1023,57.36,34,1,27.34,clear sky
411,Lalpur,IN,22.2,69.9667,76.96,70,0,7.96,clear sky
412,Jumla,NP,29.2747,82.1838,52.65,34,0,3.94,clear sky
413,Ulladulla,AU,-35.35,150.4667,67.77,70,100,5.46,light rain
414,Charlestown,AU,-32.95,151.6667,68.74,82,100,1.99,overcast clouds
415,Albert,FR,50.0009,2.651,47.79,91,0,10.36,clear sky
416,Chambishi,ZM,-12.6325,28.0537,59.45,96,22,2.77,few clouds
417,Nanortalik,GL,60.1432,-45.2371,37.35,90,100,3.42,overcast clouds
418,Komsomolskiy,UZ,40.4272,71.7189,57.92,88,100,4.61,mist
419,Aswan,EG,24.0934,32.907,76.95,15,23,10.65,few clouds
420,Lagoa Nova,BR,-6.1,-36.4833,67.96,86,24,8.34,few clouds
421,Wum,CM,6.3833,10.0667,67.03,90,100,3.87,overcast clouds
422,Alofi,NU,-19.0595,-169.9187,78.94,79,99,11.61,light rain
423,Ambilobe,MG,-13.2,49.05,71.76,84,3,4.61,clear sky
424,Divnomorskoye,RU,44.5011,38.1353,53.51,69,14,4.9,few clouds
425,Auki,SB,-8.7676,160.7034,87.48,60,72,2.1,broken clouds
426,Ratnagiri,IN,16.9833,73.3,81.46,70,6,6.8,clear sky
427,Piripiri,BR,-4.2733,-41.7769,72.61,96,98,3.6,overcast clouds
428,New Ulm,US,44.3125,-94.4605,44.98,66,100,21.85,overcast clouds
429,Pringsewu,ID,-5.3582,104.9744,78.69,89,100,4.18,overcast clouds
430,Qasigiannguit,GL,68.8193,-51.1922,26.85,96,97,0.81,overcast clouds
431,Getulio Vargas,UY,-32.6796,-53.5494,60.98,60,0,9.48,clear sky
432,Whitehorse,CA,60.7161,-135.0538,48.02,65,75,5.75,light intensity shower rain
433,Colwyn Bay,GB,53.2948,-3.7267,46.2,89,6,6.64,clear sky
434,Plouzane,FR,48.3833,-4.6167,51.85,97,100,4.61,mist
435,Portland,US,45.5234,-122.6762,70.29,40,75,11.01,broken clouds
436,Noumea,NC,-22.2763,166.4572,78.01,99,100,17.96,overcast clouds
437,Romitan,UZ,39.9343,64.3814,55.35,71,0,6.91,clear sky
438,Namatanai,PG,-3.6667,152.4333,85.41,65,79,3.29,broken clouds
439,Chester,US,40.1254,-75.8749,59.56,61,0,5.75,clear sky
440,Ipixuna,BR,-1.7625,-48.8043,74.1,96,100,1.61,overcast clouds
441,Faya,SA,18.3851,42.4509,59.52,51,6,1.1,clear sky
442,Kralendijk,BQ,12.15,-68.2667,80.58,74,40,13.8,scattered clouds
443,Okha,RU,53.5739,142.9478,31.68,73,100,9.01,overcast clouds
444,Hegra,NO,63.4644,11.114,42.71,87,75,18.41,broken clouds
445,Llata,PE,-9.4167,-76.7833,51.12,95,100,3.29,overcast clouds
446,Kungurtug,RU,50.5994,97.5228,18.93,53,55,7.43,broken clouds
447,Atar,MR,20.5169,-13.0499,76.32,32,0,7.61,clear sky
448,Sao Joao Da Barra,BR,-21.6403,-41.0511,74.61,82,100,11.92,overcast clouds
449,Sayyan,YE,15.1718,44.3244,59.23,44,9,1.1,clear sky
450,Itarema,BR,-2.9248,-39.9167,76.69,88,100,6.51,overcast clouds
451,Muscat,OM,23.6139,58.5922,91.42,46,0,3.0,clear sky
452,Mtwara,TZ,-10.2667,40.1833,76.08,91,99,4.72,light rain
453,California City,US,35.1258,-117.9859,75.97,8,0,3.0,clear sky
454,Bundaberg,AU,-24.85,152.35,80.22,64,75,18.41,broken clouds
455,Dir,PK,35.2058,71.8756,58.1,62,17,7.29,few clouds
456,Caravelas,BR,-17.7125,-39.2481,76.23,93,0,4.85,clear sky
457,Namibe,AO,-15.1961,12.1522,69.93,82,1,6.08,clear sky
458,Nijar,ES,36.9665,-2.206,55.04,88,100,3.44,overcast clouds
459,Port Lincoln,AU,-34.7333,135.8667,67.12,70,67,15.21,broken clouds
460,Srivardhan,IN,18.0333,73.0167,81.14,68,5,6.11,clear sky
461,Suicheng,CN,33.8963,117.9331,63.93,95,100,11.48,overcast clouds
462,Shahr-E Babak,IR,30.1165,55.1186,60.21,25,63,3.53,broken clouds
463,Codrington,AU,-38.2667,141.9667,64.56,50,90,5.68,overcast clouds
464,Nouakchott,MR,18.0858,-15.9785,73.33,64,0,14.34,clear sky
465,Kampong Chhnang,KH,12.1667,104.55,86.0,67,71,10.83,broken clouds
466,San Rafael,AR,-34.6177,-68.3301,72.21,12,87,17.83,overcast clouds
467,Llanes,ES,43.4198,-4.7549,54.73,84,93,1.48,overcast clouds
468,Bourbonnais,US,41.1417,-87.875,66.02,92,100,13.8,overcast clouds
469,Santa Lucia,ES,27.9117,-15.5407,53.76,72,20,4.61,few clouds
470,Mao,ES,39.8885,4.2658,54.16,87,0,5.75,clear sky
471,Varkaus,FI,62.3153,27.873,29.3,95,13,4.18,few clouds
472,Canmore,CA,51.0834,-115.3521,55.81,100,24,4.83,few clouds
473,Tongzi,CN,28.7829,105.0877,66.29,83,100,2.46,overcast clouds
474,Kaura Namoda,NG,12.5898,6.5779,85.1,45,100,9.4,overcast clouds
475,Gornorechenskiy,RU,44.2624,135.1133,61.88,26,29,4.79,scattered clouds
476,Durango,MX,24.8333,-104.8333,76.33,12,0,22.32,clear sky
477,Kavieng,PG,-2.5744,150.7967,84.83,69,100,7.52,light rain
478,Portobelo,PA,9.55,-79.65,80.74,83,100,5.3,overcast clouds
479,Seoul,KR,37.5683,126.9778,65.77,82,75,4.61,mist
480,Ostersund,SE,63.1792,14.6357,36.05,69,100,6.91,overcast clouds
481,Anadyr,RU,64.75,177.4833,30.7,64,0,8.95,clear sky
482,Inuvik,CA,68.3499,-133.7218,34.05,97,100,2.57,overcast clouds
483,Inverness,GB,57.4791,-4.224,45.84,83,100,3.44,overcast clouds
484,Gulfport,US,30.3674,-89.0928,75.25,85,20,12.66,few clouds
485,Dicabisagan,PH,17.0818,122.4157,84.74,69,84,4.38,broken clouds
486,Kigali,RW,-1.95,30.0588,65.68,94,75,3.44,broken clouds
487,Ambon,ID,-3.6954,128.1814,93.34,59,40,4.61,scattered clouds
488,Mayumba,GA,-3.432,10.6554,77.43,91,100,2.73,overcast clouds
489,Port Hardy,CA,50.6996,-127.4199,45.72,92,100,11.65,light rain
490,Tazovskiy,RU,67.4667,78.7,-4.65,99,62,4.79,broken clouds
491,Angoche,MZ,-16.2325,39.9086,74.23,94,100,7.4,overcast clouds
492,Pathein,MM,16.7833,94.7333,86.09,63,95,8.01,overcast clouds
493,Shirokiy,RU,49.758,129.523,45.64,54,14,5.86,few clouds
494,Dzhebariki-Khaya,RU,62.2167,135.8,32.43,77,83,0.49,broken clouds
495,Moerai,PF,-22.4333,-151.3333,78.46,76,9,18.79,clear sky
496,Kyren,RU,51.6828,102.1408,25.7,53,100,0.31,overcast clouds
497,Arlit,NE,18.7369,7.3853,83.25,11,0,5.88,clear sky
498,Rosario,AR,-32.9468,-60.6393,72.95,74,0,5.75,clear sky
499,Kutum,SD,14.2,24.6667,74.93,11,71,4.56,broken clouds
500,Rafsanjan,IR,30.4067,55.9939,69.58,22,100,6.49,overcast clouds
501,Hualmay,PE,-11.0964,-77.6139,67.41,86,51,9.69,broken clouds
502,Sovetskiy,RU,61.3614,63.5842,29.97,96,71,2.8,broken clouds
503,Lorengau,PG,-2.0226,147.2712,85.12,66,69,8.93,broken clouds
504,Boguchany,RU,58.3814,97.4531,30.47,87,96,6.8,overcast clouds
505,Mitsamiouli,KM,-11.3847,43.2844,80.44,82,99,10.65,light rain
506,Karratha,AU,-20.7377,116.8463,82.78,40,100,3.15,overcast clouds
507,Goderich,CA,43.7501,-81.7165,52.27,96,100,18.25,overcast clouds
508,Prince Rupert,CA,54.3161,-130.3201,46.94,81,100,4.94,light rain
509,Mnogovershinnyy,RU,53.9353,139.9242,25.74,93,100,4.27,light snow
510,Puerto Narino,CO,-3.7703,-70.3831,76.05,91,55,0.6,moderate rain
511,Asahikawa,JP,43.7678,142.3703,56.86,33,13,7.47,few clouds
512,San Juan Bautista,PE,-14.0108,-75.7358,70.16,69,100,5.91,overcast clouds
513,San Pedro De Macoris,DO,18.4616,-69.2972,74.01,79,18,11.61,few clouds
514,Aktash,RU,50.3,87.7333,15.33,57,14,4.03,few clouds
515,Bansdih,IN,25.8833,84.2167,85.26,13,0,5.53,clear sky
516,Quelimane,MZ,-17.8786,36.8883,71.65,98,95,6.22,overcast clouds
517,Beaumont,US,30.0861,-94.1019,77.11,83,100,13.8,overcast clouds
518,Shangrao,CN,28.4532,117.9686,78.89,78,100,3.76,overcast clouds
519,Lethem,GY,3.3803,-59.7968,80.08,74,100,7.85,overcast clouds
520,Iqaluit,CA,63.7506,-68.5145,20.7,85,100,13.0,overcast clouds
521,Szombathely,HU,47.2309,16.6216,46.74,81,44,3.74,scattered clouds
522,Mawlaik,MM,23.6333,94.4167,84.88,43,0,0.22,clear sky
523,Takoradi,GH,4.8845,-1.7554,76.33,85,100,7.02,overcast clouds
524,Byron Bay,AU,-28.65,153.6167,71.94,62,100,12.66,overcast clouds
525,Bafq,IR,31.6128,55.4107,73.27,18,36,6.51,scattered clouds
526,Deputatskiy,RU,69.3,139.9,11.12,89,100,3.85,overcast clouds
527,Dalbeattie,GB,54.9328,-3.8227,43.84,83,97,6.26,overcast clouds
528,Khartoum,SD,15.5518,32.5324,83.01,19,19,8.77,few clouds
529,Dingle,PH,10.9995,122.6711,84.61,74,94,11.01,overcast clouds
530,Koungou,YT,-12.7336,45.2042,78.51,89,20,4.61,light rain
531,Rondonopolis,BR,-16.4708,-54.6356,76.5,75,9,4.0,clear sky
532,Tezu,IN,27.9167,96.1667,70.32,71,100,2.46,overcast clouds
533,Alvdal,NO,62.1077,10.6307,32.97,85,100,4.83,overcast clouds
534,Poum,NC,-20.2333,164.0167,77.58,70,94,15.03,overcast clouds
535,Onega,RU,63.9061,38.1404,24.67,89,19,2.62,few clouds
536,Tupik,RU,54.4253,119.9327,35.49,51,99,5.66,overcast clouds
537,Mafeteng,LS,-29.823,27.2374,48.11,90,12,2.68,few clouds
538,Ransang,PH,8.9603,117.5828,84.88,68,14,2.64,few clouds
539,Boromo,BF,11.75,-2.9333,88.43,13,87,4.81,overcast clouds
540,Honningsvag,NO,70.9821,25.9704,33.55,69,100,8.05,overcast clouds
541,Kulhudhuffushi,MV,6.6221,73.07,84.13,72,21,6.17,few clouds
542,Hasaki,JP,35.7333,140.8333,73.29,73,63,3.65,broken clouds
543,Killybegs,IE,54.6333,-8.45,48.13,74,75,5.37,broken clouds
544,Cabo San Lucas,MX,22.8909,-109.9124,78.62,63,0,11.5,clear sky
545,Meulaboh,ID,4.1363,96.1285,79.43,86,99,3.85,overcast clouds
546,Brusque,BR,-27.0981,-48.9175,73.17,94,98,0.38,overcast clouds
547,Olgina,EE,59.3953,28.1253,41.43,97,100,7.78,overcast clouds
548,Eenhana,NA,-17.4667,16.3333,62.53,48,6,4.03,clear sky
549,Jalu,LY,29.0331,21.5482,69.42,42,4,9.13,clear sky
550,Mattru,SL,7.6244,-11.8332,74.73,87,100,2.39,overcast clouds
551,Sioux Lookout,CA,50.1001,-91.917,33.87,100,100,8.05,overcast clouds
552,Kabarnet,KE,0.4919,35.743,58.86,88,100,2.64,light rain
553,Coquimbo,CL,-29.9533,-71.3436,56.93,94,100,1.14,overcast clouds
554,Saint Anthony,US,45.0205,-93.218,44.2,69,100,21.85,overcast clouds
555,Solnechnyy,RU,50.7214,136.6319,32.34,90,100,2.95,overcast clouds
556,Kuloy,RU,61.0305,42.4925,26.49,96,22,3.49,few clouds
557,Santa Isabel Do Rio Negro,BR,-0.4139,-65.0192,75.06,97,100,2.1,overcast clouds
558,Yabrud,SY,33.9674,36.6574,57.29,50,36,5.68,scattered clouds
559,Constitucion,CL,-35.3333,-72.4167,54.27,92,87,3.0,overcast clouds
560,Nizwa,OM,22.9333,57.5333,76.23,43,0,2.1,clear sky
561,Olyka,UA,50.7186,25.8125,48.92,95,100,7.58,overcast clouds
562,Bilibino,RU,68.0546,166.4372,21.24,76,100,4.07,overcast clouds
563,Aguada De Pasajeros,CU,22.385,-80.8508,75.33,75,35,11.03,moderate rain
564,Cururupu,BR,-1.8283,-44.8683,73.26,93,3,2.66,clear sky
565,Kalmunai,LK,7.4167,81.8167,79.9,84,73,4.09,broken clouds
566,Hailey,US,43.5196,-114.3153,52.99,42,0,10.0,clear sky
567,Guerrero Negro,MX,27.9769,-114.0611,69.06,49,0,18.03,clear sky
568,Dongsheng,CN,39.8161,109.9776,64.24,16,0,16.15,clear sky
569,Katobu,ID,-4.9408,122.5276,84.22,70,99,6.15,overcast clouds
570,Awjilah,LY,29.1081,21.2869,68.43,46,5,9.4,clear sky
571,Trairi,BR,-3.2778,-39.2689,75.97,91,100,6.26,overcast clouds
572,Bagan,RU,54.1001,77.6646,34.36,50,8,2.33,clear sky
573,Valentin Gomez Farias,MX,28.2167,-106.5833,77.67,11,0,19.48,clear sky
574,Shitanjing,CN,39.2342,106.3439,69.75,14,53,10.89,broken clouds
575,College,US,64.8569,-147.8028,52.12,33,75,6.91,broken clouds
576,Pomezia,IT,41.667,12.5052,58.55,83,40,5.75,scattered clouds
577,Asau,RO,46.4333,26.4,52.72,97,100,4.45,light rain
578,Wamba,NG,8.9333,8.6,75.27,76,100,3.09,overcast clouds
579,Moussoro,TD,13.6408,16.4901,88.86,19,100,3.36,overcast clouds
580,Vanavara,RU,60.34,102.2797,30.07,75,100,5.28,overcast clouds
581,Yar-Sale,RU,66.8333,70.8333,1.53,97,54,4.21,broken clouds
582,Akersberga,SE,59.4794,18.2997,37.06,86,0,8.28,clear sky
583,Barbacena,BR,-21.2258,-43.7736,60.91,97,95,7.56,overcast clouds
584,Tamale,GH,9.4008,-0.8393,83.14,62,100,10.47,overcast clouds
585,Sigli,ID,5.3848,95.9609,82.26,75,97,1.72,overcast clouds
586,Berekum,GH,7.4534,-2.584,71.73,89,100,3.56,overcast clouds
587,Marsh Harbour,BS,26.5412,-77.0636,74.3,71,4,19.15,clear sky
588,Praya,CV,14.9215,-23.5087,75.74,46,0,14.97,clear sky
589,Ballina,AU,-28.8667,153.5667,73.58,72,99,12.48,overcast clouds
590,Kontagora,NG,10.3999,5.4695,80.17,69,64,7.56,broken clouds
591,Karpathos,GR,35.507,27.2132,58.96,94,6,12.66,clear sky
592,Gimli,CA,50.6336,-96.9907,25.48,93,100,26.73,light snow
593,Majene,ID,-3.5403,118.9707,80.22,84,100,5.79,overcast clouds
594,Ouadda,CF,8.0777,22.4007,70.61,89,95,3.87,overcast clouds
595,El Carmen,CO,8.5106,-73.4478,67.98,96,47,3.8,scattered clouds
596,Baoqing,CN,46.3317,132.2111,57.61,29,100,9.6,overcast clouds
597,Nelson,NZ,-41.2833,173.2833,64.29,73,53,5.99,broken clouds
598,Severo-Yeniseyskiy,RU,60.3725,93.0408,23.72,88,100,8.14,overcast clouds
599,Dossor,KZ,47.5272,52.9811,52.97,52,100,11.21,overcast clouds
600,Tandil,AR,-37.3217,-59.1332,64.69,48,88,14.45,overcast clouds
601,Uchana,IN,29.4667,76.1667,80.71,20,0,6.15,clear sky
602,Russell,US,32.3502,-85.1999,73.0,88,0,0.0,clear sky
603,Koshurnikovo,RU,54.1667,93.3,25.16,76,71,2.82,broken clouds
604,Tiznit,MA,29.5833,-9.5,53.11,90,95,4.88,overcast clouds
605,Morehead,US,37.2711,-87.1764,73.15,60,40,5.75,scattered clouds
606,Kabelvag,NO,68.2114,14.4817,41.52,88,100,6.33,overcast clouds
607,Nago,JP,26.5881,127.9761,81.45,79,10,6.58,clear sky
608,Chatra,IN,24.2167,84.8667,82.36,15,4,4.18,clear sky
609,Tripoli,LY,32.8752,13.1875,65.98,54,100,11.95,overcast clouds
610,Mahenge,TZ,-8.6833,36.7167,62.87,97,99,1.03,light rain
611,Ilhabela,BR,-23.7781,-45.3581,73.15,86,82,9.6,broken clouds
612,Hervey Bay,AU,-25.2986,152.8535,75.29,62,100,22.88,overcast clouds
613,Phalaborwa,ZA,-23.943,31.1411,69.73,61,7,1.83,clear sky
614,Fougamou,GA,-1.2154,10.5838,73.51,99,100,0.65,overcast clouds
615,The Valley,AI,18.217,-63.0578,77.83,73,19,17.94,few clouds
616,Baruun-Urt,MN,46.6806,113.2792,46.04,38,100,6.73,moderate rain
617,Am Timan,TD,11.0297,20.2827,85.84,39,96,5.97,overcast clouds
618,Dovolnoye,RU,54.4958,79.6671,33.71,55,13,5.19,few clouds
619,Necochea,AR,-38.5473,-58.7368,68.11,44,100,18.59,overcast clouds
620,Shetpe,KZ,44.1667,52.1167,59.16,37,100,8.05,overcast clouds
621,San Juan,AR,-31.5375,-68.5364,78.12,12,0,16.15,clear sky
622,Yurga,RU,55.7231,84.8861,33.66,72,100,7.09,overcast clouds
623,Yanam,IN,16.7333,82.2167,81.1,85,0,4.45,clear sky
624,Northam,GB,51.0333,-4.2167,49.6,70,14,12.17,few clouds
625,Morondava,MG,-20.2833,44.2833,75.63,87,100,10.29,overcast clouds
626,Bam,IR,29.106,58.357,76.78,22,9,7.07,clear sky
627,Kununurra,AU,-15.7667,128.7333,85.98,42,70,6.91,broken clouds
628,Wanning,CN,18.8003,110.3967,83.53,79,6,14.18,clear sky
629,Lipovtsy,RU,44.2014,131.7244,61.41,28,0,11.41,clear sky
630,Mineiros,BR,-17.5694,-52.5511,73.72,66,72,3.24,broken clouds
631,Aykhal,RU,66.0,111.5,17.92,81,23,3.51,few clouds
632,Bonnyville,CA,54.2668,-110.735,46.17,64,100,10.45,overcast clouds
633,Lazarev,RU,52.225,141.5131,29.26,90,100,12.12,overcast clouds
634,Cilegon,ID,-6.0174,106.0538,82.47,76,95,5.7,overcast clouds
635,Pontalina,BR,-17.525,-49.4472,70.75,62,0,4.07,clear sky
636,Leh,IN,34.1667,77.5833,36.54,45,11,1.77,few clouds
637,Vanimo,PG,-2.6741,141.3028,84.49,71,100,4.45,overcast clouds
638,Taoudenni,ML,22.6783,-3.9836,77.32,26,0,12.03,clear sky
639,Ulaanbaatar,MN,47.9077,106.8832,26.73,59,75,20.13,broken clouds
640,Launceston,AU,-41.45,147.1667,59.81,87,100,0.0,overcast clouds
641,Maldonado,UY,-34.6667,-54.9167,72.23,34,0,15.73,clear sky
642,Vysokogornyy,RU,50.1167,139.15,30.47,85,100,9.69,overcast clouds
643,Srednekolymsk,RU,67.45,153.6833,21.18,85,100,16.91,overcast clouds
644,Acapulco,MX,16.8634,-99.8901,80.42,78,20,6.91,few clouds
645,Mocajuba,BR,-2.5842,-49.5072,73.92,95,100,1.61,heavy intensity rain
646,Bereda,ES,43.2686,-7.5406,47.57,100,99,1.19,overcast clouds
647,Khanpur,PK,28.6453,70.6567,84.61,20,97,8.43,overcast clouds
648,Impfondo,CG,1.6381,18.0667,71.4,91,98,1.3,light rain
649,Domoni,KM,-12.2569,44.5319,79.07,88,100,5.12,light rain
650,Adrar,MR,20.5022,-10.0711,72.01,35,0,10.04,clear sky
651,Ekibastuz,KZ,51.6667,75.3667,32.83,46,35,8.59,scattered clouds
652,Heihe,CN,50.2441,127.4902,50.4,39,69,6.04,broken clouds
653,Malmesbury,ZA,-33.4608,18.7271,52.77,89,0,4.74,clear sky
654,Kirakira,SB,-10.4544,161.9205,84.85,71,100,5.61,overcast clouds
655,Sal Rei,CV,16.1833,-22.9167,71.47,83,3,12.93,clear sky
656,Keetmanshoop,NA,-26.5833,18.1333,48.06,32,0,4.05,clear sky
657,Mutoko,ZW,-17.397,32.2268,63.1,86,94,0.87,light rain
658,Massaguet,TD,12.4755,15.4365,91.08,25,100,4.18,overcast clouds
659,Bilma,NE,18.6853,12.9164,88.52,9,0,6.93,clear sky
660,Karaton,ID,-6.3424,106.1045,81.09,78,56,5.21,broken clouds
661,Helena,US,46.5927,-112.0361,55.81,28,20,5.01,few clouds
662,Hochheim,DE,50.3667,10.45,45.45,90,100,4.5,overcast clouds
663,Imphal,IN,24.8167,93.95,73.02,65,0,0.89,clear sky
664,Zabaykalsk,RU,49.6333,117.3167,38.86,25,100,13.42,light rain
665,Nemuro,JP,43.3236,145.575,44.47,63,100,15.23,overcast clouds
666,Nageshwari,BD,25.9377,89.7148,77.4,80,3,11.16,clear sky
667,Inverell,AU,-29.7833,151.1167,71.67,49,80,8.01,broken clouds
668,Mulki,IN,13.1,74.8,81.68,89,75,0.0,broken clouds
669,Vung Tau,VN,10.346,107.0843,83.62,77,69,12.24,broken clouds
670,Farafangana,MG,-22.8167,47.8333,72.54,89,100,6.17,light rain
